[{
  "sort": 2,
  "id": "00001",
  "name": "臺中市",
  "districts": [{
    "sort": 1,
    "id": 1,
    "name": "南區",
    "latitude": 24.11343,
    "longitude": 120.66320,
    "zipCode": 100
  },
  {
    "sort": 2,
    "id": 2,
    "name": "西區",
    "latitude": 24.1488,
    "longitude":120.66434,
    "zipCode": 100
  },
  {
    "sort": 3,
    "id": 3,
    "name": "東區",
    "latitude": 24.14012,
    "longitude":120.68933,
    "zipCode": 100
  },
  {
    "sort": 4,
    "id": 4,
    "name": "北區",
    "latitude": 24.15391,
    "longitude":120.67446,
    "zipCode": 100
  },
  {
    "sort": 5,
    "id": 5,
    "name": "中區",
    "latitude": 24.13785,
    "longitude":120.68337,
    "zipCode": 100
  },
  {
    "sort": 6,
    "id": 6,
    "name": "西屯區",
    "latitude": 24.16303,
    "longitude":120.64574,
    "zipCode": 100
  },
  {
    "sort": 7,
    "id": 7,
    "name": "南屯區",
    "latitude": 24.14429,
    "longitude":120.64329,
    "zipCode": 100
  },
  {
    "sort": 8,
    "id": 8,
    "name": "北屯區",
    "latitude": 24.17173,
    "longitude":120.68526,
    "zipCode": 100
  },
  {
    "sort": 9,
    "id": 9,
    "latitude": 24.12264,
    "longitude":120.7184,
    "ZipCode": "411",
    "name": "太平區",
    "AreaEngName": "Taiping Dist."
  },
  {
    "sort": 10,
    "id": 10,
    "latitude": 24.1149,
    "longitude":120.6714,
      "ZipCode": "412",
      "name": "大里區",
      "AreaEngName": "Dali Dist."
  },
  {
    "sort": 11,
      "id": 11,
      "latitude": 24.07319,
      "longitude":120.6999,
      "ZipCode": "413",
      "name": "霧峰區",
      "AreaEngName": "Wufeng Dist."
  },
  {
    "sort": 12,
      "id": 12,
      "latitude": 24.10461,
      "longitude":120.6236,
      "ZipCode": "414",
      "name": "烏日區",
      "AreaEngName": "Wuri Dist."
  },
  {
    "sort": 13,
      "id": 13,
      "latitude": 24.24529,
      "longitude":120.7138,
      "ZipCode": "420",
      "name": "豐原區",
      "AreaEngName": "Fengyuan Dist."
  },
  {
    "sort": 14,
      "id": 14,
      "latitude": 24.31008,
      "longitude":120.7331,
      "ZipCode": "421",
      "name": "后里區",
      "AreaEngName": "Houli Dist."
  },
  {
    "sort": 15,
      "id": 15,
      "latitude": 24.17173,
      "longitude":120.68526,
      "ZipCode": "422",
      "name": "石岡區",
      "AreaEngName": "Shigang Dist."
  },
  {
    "sort": 16,
      "id": 16,
      "latitude": 24.26017,
      "longitude":120.8276,
      "ZipCode": "423",
      "name": "東勢區",
      "AreaEngName": "Dongshi Dist."
  },
  {
    "sort": 17,
      "id": 17,
      "latitude": 24.20292,
      "longitude":121.0054,
      "ZipCode": "424",
      "name": "和平區",
      "AreaEngName": "Heping Dist."
  },
  {
    "sort": 18,
      "id": 18,
      "latitude": 24.23932,
      "longitude":120.8072,
      "ZipCode": "426",
      "name": "新社區",
      "AreaEngName": "Xinshe Dist."
  },
  {
    "sort": 19,
      "id": 19,
      "latitude": 24.21325,
      "longitude":120.7049,
      "ZipCode": "427",
      "name": "潭子區",
      "AreaEngName": "Tanzi Dist."
  },
  {
    "sort": 20,
      "id": 20,
      "latitude": 24.22857,
      "longitude":120.6431,
      "ZipCode": "428",
      "name": "大雅區",
      "AreaEngName": "Daya Dist."
  },
  {
    "sort": 21,
      "id": 21,
      "latitude": 24.24723,
      "longitude":120.6815,
      "ZipCode": "429",
      "name": "神岡區",
      "AreaEngName": "Shengang Dist."
  },
  {
    "sort": 22,
      "id": 22,
      "latitude": 24.15446,
      "longitude":120.5444,
      "ZipCode": "432",
      "name": "大肚區",
      "AreaEngName": "Dadu Dist."
  },
  {
    "sort": 24,
      "id": 24,
      "latitude": 24.19805,
      "longitude":120.5437,
      "ZipCode": "434",
      "name": "龍井區",
      "AreaEngName": "Longjing Dist."
  },
  {
    "sort": 25,
      "id": 25,
      "latitude": 24.25359,
      "longitude":120.5301,
      "ZipCode": "435",
      "name": "梧棲區",
      "AreaEngName": "Wuqi Dist."
  },
  {
    "sort": 26,
      "id": 26,
      "latitude": 24.26935,
      "longitude":120.5579,
      "ZipCode": "436",
      "name": "清水區",
      "AreaEngName": "Qingshui Dist."
  },
  {
    "sort": 27,
      "id": 27,
      "latitude": 24.3445,
      "longitude":120.6237,
      "ZipCode": "437",
      "name": "大甲區",
      "AreaEngName": "Dajia Dist."
  },
  {
    "sort": 28,
    "id": 28,
    "latitude": 24.33212,
    "longitude":120.6546,
      "ZipCode": "438",
      "name": "外埔區",
      "AreaEngName": "Waipu Dist."
  },
  {
    "sort": 23,
    "id": 23,
    "latitude": 24.23392,
    "longitude":120.5659,
      "ZipCode": "439",
      "name": "沙鹿區",
      "AreaEngName": "Da’an Dist."
  },
  {
    "sort": 23,
    "id": 23,
    "latitude": 24.34547,
    "longitude":120.5872,
      "ZipCode": "439",
      "name": "大安區",
      "AreaEngName": "Da’an Dist."
  }
]
}]